{
  "manhattan_bookstores": {
    "description": "Directory of 20 notable bookstores in Manhattan with complete address information",
    "last_updated": "2025-08-12",
    "total_stores": 20,
    "bookstores": [
      {
        "id": 1,
        "name": "The Strand Bookstore",
        "address": {
          "street": "828 Broadway",
          "cross_street": "East 12th Street",
          "city": "New York",
          "state": "NY",
          "zip_code": "10003",
          "full_address": "828 Broadway, New York, NY 10003"
        },
        "location": {
          "borough": "Manhattan",
          "neighborhood": "East Village",
          "coordinates": {
            "latitude": 40.7333,
            "longitude": -73.9908
          }
        },
        "type": "Independent",
        "specialties": ["New, used, and rare books", "18 miles of books", "Literary merchandise"],
        "atmosphere": "Iconic NYC institution, massive selection",
        "website": "https://strandbooks.com",
        "founded": 1927,
        "slogan": "18 Miles of Books",
        "note": "Last surviving bookstore from historic Book Row"
      },
      {
        "id": 2,
        "name": "McNally Jackson Books",
        "address": {
          "street": "134 Prince Street",
          "cross_street": "West Broadway",
          "city": "New York",
          "state": "NY",
          "zip_code": "10012",
          "full_address": "134 Prince Street, New York, NY 10012"
        },
        "location": {
          "borough": "Manhattan",
          "neighborhood": "NoLita",
          "coordinates": {
            "latitude": 40.7248,
            "longitude": -74.0022
          }
        },
        "type": "Independent",
        "specialties": ["Curated fiction", "International authors", "Small press books"],
        "atmosphere": "Bright, modern, literary haven",
        "website": "https://mcnallyjackson.com",
        "founded": 2004,
        "note": "Moved to current location in 2023, multiple NYC locations"
      },
      {
        "id": 3,
        "name": "Argosy Book Store",
        "address": {
          "street": "116 East 59th Street",
          "cross_street": "Park Avenue & Lexington Avenue",
          "city": "New York",
          "state": "NY",
          "zip_code": "10022",
          "full_address": "116 East 59th Street, New York, NY 10022"
        },
        "location": {
          "borough": "Manhattan",
          "neighborhood": "Midtown East",
          "coordinates": {
            "latitude": 40.7614,
            "longitude": -73.9706
          }
        },
        "type": "Antiquarian",
        "specialties": ["Rare books", "First editions", "Antique maps", "Autographs"],
        "atmosphere": "Six-floor antiquarian wonderland",
        "website": "https://argosybooks.com",
        "founded": 1925,
        "note": "Third generation family ownership"
      },
      {
        "id": 4,
        "name": "Three Lives & Company",
        "address": {
          "street": "154 West 10th Street",
          "cross_street": "Waverly Place",
          "city": "New York",
          "state": "NY",
          "zip_code": "10014",
          "full_address": "154 West 10th Street, New York, NY 10014"
        },
        "location": {
          "borough": "Manhattan",
          "neighborhood": "Greenwich Village",
          "coordinates": {
            "latitude": 40.7368,
            "longitude": -74.0043
          }
        },
        "type": "Independent",
        "specialties": ["Literary fiction", "Handpicked selection", "Staff recommendations"],
        "atmosphere": "Cozy village jewel box",
        "website": "https://threelives.com",
        "founded": 1978,
        "note": "Named after Gertrude Stein novel"
      },
      {
        "id": 5,
        "name": "Books of Wonder",
        "address": {
          "street": "18 West 18th Street",
          "cross_street": "5th Avenue",
          "city": "New York",
          "state": "NY",
          "zip_code": "10011",
          "full_address": "18 West 18th Street, New York, NY 10011"
        },
        "location": {
          "borough": "Manhattan",
          "neighborhood": "Flatiron District",
          "coordinates": {
            "latitude": 40.7388,
            "longitude": -73.9908
          }
        },
        "type": "Children's Specialty",
        "specialties": ["Children's books", "Author events", "Signed editions"],
        "atmosphere": "Magical children's wonderland",
        "website": "https://booksofwonder.com",
        "founded": 1980,
        "note": "Also has Upper West Side location"
      },
      {
        "id": 6,
        "name": "Rizzoli Bookstore",
        "address": {
          "street": "1133 Broadway",
          "cross_street": "26th Street",
          "city": "New York",
          "state": "NY",
          "zip_code": "10010",
          "full_address": "1133 Broadway, New York, NY 10010"
        },
        "location": {
          "borough": "Manhattan",
          "neighborhood": "NoMad",
          "coordinates": {
            "latitude": 40.7441,
            "longitude": -73.9890
          }
        },
        "type": "Art & Design Specialty",
        "specialties": ["Art books", "Architecture", "Design", "Fashion"],
        "atmosphere": "Architectural Digest-worthy beauty",
        "website": "https://rizzolibookstore.com",
        "founded": 1964,
        "note": "Most beautiful bookstore in NYC"
      },
      {
        "id": 7,
        "name": "Kinokuniya Bookstore",
        "address": {
          "street": "1073 Avenue of the Americas",
          "cross_street": "41st Street",
          "city": "New York",
          "state": "NY",
          "zip_code": "10018",
          "full_address": "1073 Avenue of the Americas, New York, NY 10018"
        },
        "location": {
          "borough": "Manhattan",
          "neighborhood": "Midtown",
          "coordinates": {
            "latitude": 40.7549,
            "longitude": -73.9840
          }
        },
        "type": "International Specialty",
        "specialties": ["Japanese books", "Manga", "Anime", "Asian culture"],
        "atmosphere": "Multi-floor Japanese cultural center",
        "website": "https://kinokuniya.com",
        "founded": 1969,
        "note": "Three floors including cafe"
      },
      {
        "id": 8,
        "name": "The Mysterious Bookshop",
        "address": {
          "street": "58 Warren Street",
          "cross_street": "West Broadway",
          "city": "New York",
          "state": "NY",
          "zip_code": "10007",
          "full_address": "58 Warren Street, New York, NY 10007"
        },
        "location": {
          "borough": "Manhattan",
          "neighborhood": "Tribeca",
          "coordinates": {
            "latitude": 40.7150,
            "longitude": -74.0089
          }
        },
        "type": "Genre Specialty",
        "specialties": ["Mystery fiction", "Crime novels", "Thrillers", "Detective stories"],
        "atmosphere": "Cozy mystery lover's paradise",
        "website": "https://mysteriousbookshop.com",
        "founded": 1979,
        "note": "Oldest mystery bookstore in America"
      },
      {
        "id": 9,
        "name": "192 Books",
        "address": {
          "street": "192 10th Avenue",
          "cross_street": "21st Street",
          "city": "New York",
          "state": "NY",
          "zip_code": "10011",
          "full_address": "192 10th Avenue, New York, NY 10011"
        },
        "location": {
          "borough": "Manhattan",
          "neighborhood": "Chelsea",
          "coordinates": {
            "latitude": 40.7455,
            "longitude": -74.0068
          }
        },
        "type": "Art & Culture",
        "specialties": ["Art books", "Photography", "Design", "Coffee table books"],
        "atmosphere": "Gallery-like, bright and airy",
        "website": "https://192books.com",
        "founded": 2003,
        "note": "Owned by art dealer Paula Cooper"
      },
      {
        "id": 10,
        "name": "Drama Book Shop",
        "address": {
          "street": "266 West 39th Street",
          "cross_street": "8th Avenue",
          "city": "New York",
          "state": "NY",
          "zip_code": "10018",
          "full_address": "266 West 39th Street, New York, NY 10018"
        },
        "location": {
          "borough": "Manhattan",
          "neighborhood": "Theater District",
          "coordinates": {
            "latitude": 40.7557,
            "longitude": -73.9909
          }
        },
        "type": "Theater Specialty",
        "specialties": ["Theater books", "Plays", "Scripts", "Performance studies"],
        "atmosphere": "Broadway's literary hub",
        "website": "https://dramabookshop.com",
        "founded": 1917,
        "note": "Historic theater district institution"
      },
      {
        "id": 11,
        "name": "Albertine",
        "address": {
          "street": "972 Fifth Avenue",
          "cross_street": "78th Street",
          "city": "New York",
          "state": "NY",
          "zip_code": "10075",
          "full_address": "972 Fifth Avenue, New York, NY 10075"
        },
        "location": {
          "borough": "Manhattan",
          "neighborhood": "Upper East Side",
          "coordinates": {
            "latitude": 40.7757,
            "longitude": -73.9631
          }
        },
        "type": "International Specialty",
        "specialties": ["French literature", "Francophone authors", "14,000 titles"],
        "atmosphere": "French embassy elegance",
        "website": "https://albertine.com",
        "founded": 2014,
        "note": "Located in Payne Whitney mansion"
      },
      {
        "id": 12,
        "name": "Corner Bookstore",
        "address": {
          "street": "1313 Madison Avenue",
          "cross_street": "93rd Street",
          "city": "New York",
          "state": "NY",
          "zip_code": "10128",
          "full_address": "1313 Madison Avenue, New York, NY 10128"
        },
        "location": {
          "borough": "Manhattan",
          "neighborhood": "Upper East Side",
          "coordinates": {
            "latitude": 40.7848,
            "longitude": -73.9553
          }
        },
        "type": "Independent",
        "specialties": ["General interest", "Local neighborhood feel", "Personal service"],
        "atmosphere": "Intimate neighborhood gem",
        "website": "https://cornerbookstorenyc.com",
        "founded": 1978,
        "note": "Classic Upper East Side bookstore"
      },
      {
        "id": 13,
        "name": "Housing Works Bookstore Cafe",
        "address": {
          "street": "126 Crosby Street",
          "cross_street": "Houston Street",
          "city": "New York",
          "state": "NY",
          "zip_code": "10012",
          "full_address": "126 Crosby Street, New York, NY 10012"
        },
        "location": {
          "borough": "Manhattan",
          "neighborhood": "SoHo",
          "coordinates": {
            "latitude": 40.7254,
            "longitude": -73.9970
          }
        },
        "type": "Non-profit",
        "specialties": ["Used books", "Social justice", "Community events"],
        "atmosphere": "Two-story activist haven with cafe",
        "website": "https://housingworks.org",
        "founded": 1990,
        "note": "Proceeds support AIDS/homelessness programs"
      },
      {
        "id": 14,
        "name": "Logos Bookstore",
        "address": {
          "street": "1575 York Avenue",
          "cross_street": "84th Street",
          "city": "New York",
          "state": "NY",
          "zip_code": "10028",
          "full_address": "1575 York Avenue, New York, NY 10028"
        },
        "location": {
          "borough": "Manhattan",
          "neighborhood": "Upper East Side",
          "coordinates": {
            "latitude": 40.7727,
            "longitude": -73.9485
          }
        },
        "type": "Religious Specialty",
        "specialties": ["Judeo-Christian books", "Bibles", "Religious studies"],
        "atmosphere": "Spiritual book sanctuary",
        "website": "https://logosbookstore.com",
        "founded": 1962,
        "note": "Specialty religious bookstore"
      },
      {
        "id": 15,
        "name": "BookOff",
        "address": {
          "street": "49 West 45th Street",
          "cross_street": "6th Avenue",
          "city": "New York",
          "state": "NY",
          "zip_code": "10036",
          "full_address": "49 West 45th Street, New York, NY 10036"
        },
        "location": {
          "borough": "Manhattan",
          "neighborhood": "Midtown",
          "coordinates": {
            "latitude": 40.7575,
            "longitude": -73.9808
          }
        },
        "type": "Used Books",
        "specialties": ["Used books", "Manga", "Japanese culture", "Budget-friendly"],
        "atmosphere": "Japanese chain store efficiency",
        "website": "https://bookoffusa.com",
        "founded": 1991,
        "note": "Japanese used book chain"
      },
      {
        "id": 16,
        "name": "Taschen Store",
        "address": {
          "street": "107 Greene Street",
          "cross_street": "Spring Street",
          "city": "New York",
          "state": "NY",
          "zip_code": "10012",
          "full_address": "107 Greene Street, New York, NY 10012"
        },
        "location": {
          "borough": "Manhattan",
          "neighborhood": "SoHo",
          "coordinates": {
            "latitude": 40.7238,
            "longitude": -73.9979
          }
        },
        "type": "Art & Design Specialty",
        "specialties": ["Art books", "Photography", "Design", "Architecture"],
        "atmosphere": "Gallery-like art book paradise",
        "website": "https://taschen.com",
        "founded": 1980,
        "note": "German publisher's flagship NYC store"
      },
      {
        "id": 17,
        "name": "St. Mark's Bookshop",
        "address": {
          "street": "136 East 3rd Street",
          "cross_street": "Avenue A",
          "city": "New York",
          "state": "NY",
          "zip_code": "10009",
          "full_address": "136 East 3rd Street, New York, NY 10009"
        },
        "location": {
          "borough": "Manhattan",
          "neighborhood": "East Village",
          "coordinates": {
            "latitude": 40.7211,
            "longitude": -73.9847
          }
        },
        "type": "Independent",
        "specialties": ["Literary fiction", "Philosophy", "Cultural studies", "Poetry"],
        "atmosphere": "Intellectual East Village institution",
        "website": "https://stmarksbookshop.com",
        "founded": 1977,
        "note": "Beloved counterculture bookstore"
      },
      {
        "id": 18,
        "name": "Left Bank Books",
        "address": {
          "street": "17 8th Avenue",
          "cross_street": "Jane Street",
          "city": "New York",
          "state": "NY",
          "zip_code": "10014",
          "full_address": "17 8th Avenue, New York, NY 10014"
        },
        "location": {
          "borough": "Manhattan",
          "neighborhood": "Greenwich Village",
          "coordinates": {
            "latitude": 40.7410,
            "longitude": -74.0024
          }
        },
        "type": "Independent",
        "specialties": ["Political books", "Social justice", "Progressive literature"],
        "atmosphere": "Activist-oriented village shop",
        "website": "https://leftbankbooks.com",
        "founded": 1982,
        "note": "Focus on progressive politics"
      },
      {
        "id": 19,
        "name": "Chartwell Booksellers",
        "address": {
          "street": "55 East 52nd Street",
          "cross_street": "Madison Avenue",
          "city": "New York",
          "state": "NY",
          "zip_code": "10022",
          "full_address": "55 East 52nd Street, New York, NY 10022"
        },
        "location": {
          "borough": "Manhattan",
          "neighborhood": "Midtown East",
          "coordinates": {
            "latitude": 40.7597,
            "longitude": -73.9736
          }
        },
        "type": "Specialty",
        "specialties": ["Winston Churchill", "British history", "WWII", "Political biography"],
        "atmosphere": "Specialized historical focus",
        "website": "https://chartwellbooksellers.com",
        "founded": 1983,
        "note": "Focuses on Churchill and related subjects"
      },
      {
        "id": 20,
        "name": "Codex Books",
        "address": {
          "street": "1 Bleecker Street",
          "cross_street": "Bowery",
          "city": "New York",
          "state": "NY",
          "zip_code": "10012",
          "full_address": "1 Bleecker Street, New York, NY 10012"
        },
        "location": {
          "borough": "Manhattan",
          "neighborhood": "East Village",
          "coordinates": {
            "latitude": 40.7257,
            "longitude": -73.9925
          }
        },
        "type": "Independent",
        "specialties": ["Literary fiction", "Art books", "Used books", "$1 outdoor carts"],
        "atmosphere": "Small literary haven",
        "website": "https://codexbooks.net",
        "founded": 2014,
        "note": "Emphasis on literary fiction and art"
      }
    ],
    "statistics": {
      "neighborhoods_represented": [
        "East Village",
        "NoLita",
        "Midtown East",
        "Greenwich Village",
        "Flatiron District",
        "NoMad",
        "Midtown",
        "Tribeca",
        "Chelsea",
        "Theater District",
        "Upper East Side",
        "SoHo"
      ],
      "bookstore_types": [
        "Independent",
        "Antiquarian",
        "Children's Specialty", 
        "Art & Design Specialty",
        "International Specialty",
        "Genre Specialty",
        "Theater Specialty",
        "Religious Specialty",
        "Used Books",
        "Non-profit"
      ],
      "founding_decades": {
        "1910s": 1,
        "1920s": 2,
        "1960s": 2,
        "1970s": 3,
        "1980s": 4,
        "1990s": 2,
        "2000s": 4,
        "2010s": 2
      }
    },
    "notable_features": {
      "historic_institutions": [
        "The Strand Bookstore (1927)",
        "Argosy Book Store (1925)",
        "Drama Book Shop (1917)"
      ],
      "specialty_focuses": [
        "Children's books (Books of Wonder)",
        "Mystery novels (The Mysterious Bookshop)",
        "French literature (Albertine)",
        "Japanese culture (Kinokuniya)",
        "Art & design (Rizzoli, Taschen, 192 Books)"
      ],
      "unique_atmospheres": [
        "18 miles of books (The Strand)",
        "French embassy elegance (Albertine)",
        "Six-floor antiquarian wonderland (Argosy)",
        "Most beautiful bookstore (Rizzoli)"
      ]
    },
    "usage_notes": {
      "address_format": "All addresses follow standard US format: Street, City, State ZIP",
      "coordinates": "Provided in decimal degrees (latitude, longitude)",
      "specialties": "Lists unique features, book focus areas, or standout characteristics",
      "atmosphere": "Describes the vibe, aesthetic, and shopping experience",
      "website_accuracy": "Websites current as of August 2025",
      "location_changes": "Some bookstores have moved recently; addresses reflect current locations",
      "hours": "Most bookstores open 10 AM-8 PM with variations; check websites for specifics",
      "events": "Many host author readings, book clubs, and literary events"
    }
  }
}